City_ID,City,Lat,Lng,Max Temp,Humidity,Cloudiness,Wind Speed,Country,Date
0,neiafu,-18.65,-173.9833,30.38,84,40,5.66,TO,1715044179
1,bengkulu,-3.8004,102.2655,25.4,92,100,1.83,ID,1715044066
2,talnakh,69.4865,88.3972,-14.33,97,96,3.08,RU,1715044179
3,bethel,41.3712,-73.414,19.05,82,75,2.06,US,1715043941
4,san patricio,28.017,-97.5169,27.4,80,0,6.22,US,1715044179
5,martinsburg,39.4562,-77.9639,20.31,93,40,1.54,US,1715043959
6,kone,-21.0595,164.8658,28.21,42,1,3.63,NC,1715044179
7,olonkinbyen,70.9221,-8.7187,0.4,97,100,7.92,SJ,1715044179
8,albany,42.6001,-73.9662,17.23,63,100,2.94,US,1715044179
9,west island,-12.1568,96.8225,26.99,83,40,6.17,CC,1715044179
10,san felipe,10.3399,-68.7425,23.47,100,99,1.32,VE,1715044179
11,ribeira grande,38.5167,-28.7,18.21,94,4,7.15,PT,1715044179
12,wladyslawowo,54.7909,18.4009,9.71,90,95,7.46,PL,1715044179
13,iqaluit,63.7506,-68.5145,-10.83,87,13,3.23,CA,1715044094
14,edinburgh of the seven seas,-37.0676,-12.3116,14.17,69,95,10.12,SH,1715044180
15,adamstown,-25.066,-130.1015,21.88,77,97,8.39,PN,1715044180
16,la sarre,48.8002,-79.1996,6.96,74,3,2.15,CA,1715043967
17,iskushuban,10.2837,50.23,27.09,75,25,2.67,SO,1715044180
18,yellowknife,62.456,-114.3525,18.56,49,9,0.89,CA,1715044148
19,sturgis,41.7992,-85.4192,17.89,55,40,2.57,US,1715044066
20,puerto natales,-51.7236,-72.4875,-2.19,90,14,1.38,CL,1715044180
21,port-aux-francais,-49.35,70.2167,7.09,97,100,13.86,TF,1715044180
22,vorgashor,67.5833,63.95,-18.44,100,93,3.23,RU,1715044180
23,nabire,-3.3667,135.4833,27.43,87,92,1.07,ID,1715044180
24,mermoz boabab,14.7065,-17.4758,22.31,87,0,7.54,SN,1715044124
25,carnarvon,-24.8667,113.6333,20.89,53,0,7.82,AU,1715044180
26,utrik,11.2278,169.8474,27.2,81,98,9.22,MH,1715044180
27,stanley,54.868,-1.6985,9.88,94,75,2.06,GB,1715043997
28,port mathurin,-19.6833,63.4167,25.78,75,2,12.19,MU,1715044180
29,badiyah,22.45,58.8,29.8,60,0,3.41,OM,1715044181
30,gorno-altaysk,51.9561,85.955,5.29,81,7,0.45,RU,1715044064
31,papatowai,-46.5619,169.4708,11.08,74,83,5.69,NZ,1715044181
32,blackmans bay,-43.0167,147.3167,14.85,68,8,0.45,AU,1715044181
33,ulsteinvik,62.3432,5.8487,10.97,92,97,1.34,NO,1715043935
34,nova sintra,14.8667,-24.7167,23.78,77,0,7.3,CV,1715044181
35,zhosaly,45.4878,64.0781,17.14,47,9,2.07,KZ,1715044181
36,uturoa,-16.7333,-151.4333,27.95,80,37,9.46,PF,1715044181
37,kingston,17.997,-76.7936,28.53,79,40,3.6,JM,1715044044
38,malanje,-9.5402,16.341,16.96,72,67,1.27,AO,1715044181
39,mount isa,-20.7333,139.5,25.87,31,57,5.14,AU,1715044181
40,grytviken,-54.2811,-36.5092,0.84,83,59,4.54,GS,1715044181
41,broken hill,-31.95,141.4333,15.25,65,100,6.44,AU,1715044181
42,puerto ayora,-0.7393,-90.3518,23.08,98,8,2.94,EC,1715044181
43,invercargill,-46.4,168.35,10.01,95,100,3.58,NZ,1715043932
44,port blair,11.6667,92.75,28.02,89,20,1.03,IN,1715044182
45,moramanga,-18.9333,48.2,13.77,99,56,1.3,MG,1715043931
46,hermanus,-34.4187,19.2345,17.4,65,98,2.37,ZA,1715044182
47,burao,9.5221,45.5336,23.34,71,83,2.36,SO,1715044182
48,constantia,44.1833,28.65,10.39,75,33,5.96,RO,1715044182
49,tateyama,34.9833,139.8667,21.17,88,100,8.96,JP,1715043905
50,ketchikan,55.3422,-131.6461,9.26,66,75,3.09,US,1715044169
51,waitangi,-43.9535,-176.5597,11.57,73,100,2.24,NZ,1715044182
52,badger,64.8,-147.5333,2.21,90,100,2.57,US,1715044182
53,jamestown,42.097,-79.2353,14.8,41,0,3.09,US,1715043914
54,dubinino,55.6192,89.0911,3.52,83,6,2.38,RU,1715044182
55,al jawf,29.5,38.75,15.7,48,0,3.94,SA,1715044182
56,fortuna,40.5982,-124.1573,13.32,85,100,5.14,US,1715044182
57,thompson,55.7435,-97.8558,13.83,47,32,4.91,CA,1715044182
58,port elizabeth,-33.918,25.5701,17.95,96,20,1.54,ZA,1715044182
59,inari,68.906,27.0288,-2.8,89,100,3.18,FI,1715044183
60,avarua,-21.2078,-159.775,28.03,89,75,5.14,CK,1715044183
61,iskateley,67.6803,53.1512,-13.32,92,100,3.58,RU,1715044183
62,akureyri,65.6835,-18.0878,4.1,69,96,5.92,IS,1715044113
63,wailua homesteads,22.0669,-159.378,27.24,84,75,6.69,US,1715044183
64,saipan,15.1355,145.701,32.39,58,40,7.2,MP,1715044183
65,bilibino,68.0546,166.4372,-1.63,89,83,1.4,RU,1715044183
66,kill devil hills,36.0307,-75.676,23.01,87,0,7.2,US,1715044007
67,ust-nera,64.5667,143.2,4.4,75,59,2.78,RU,1715044183
68,teguise,29.0605,-13.564,17.12,82,0,8.23,ES,1715043986
69,auki,-8.7676,160.7034,28.38,84,100,1.52,SB,1715044183
70,mhamid,29.82,-5.72,25.49,9,0,2.64,MA,1715044183
71,smithers,54.7804,-127.1743,10.46,36,100,3.0,CA,1715044183
72,margaret river,-33.95,115.0667,15.45,69,2,3.24,AU,1715044184
73,sihanoukville,10.6093,103.5296,26.97,89,40,2.06,KH,1715044184
74,tiksi,71.6872,128.8694,-1.34,89,46,3.52,RU,1715044184
75,jinchang,38.4953,102.1739,19.67,24,100,2.32,CN,1715044184
76,lihue,21.9789,-159.3672,27.58,78,75,6.69,US,1715044184
77,olovyannaya,50.95,115.5667,18.1,28,43,5.51,RU,1715044184
78,longyearbyen,78.2186,15.6401,-4.09,80,75,3.6,SJ,1715044184
79,whitehorse,60.7161,-135.0538,4.89,87,100,4.92,CA,1715044184
80,rongelap,11.1635,166.8941,27.86,79,35,7.57,MH,1715044184
81,katsuura,35.1333,140.3,20.49,86,100,11.4,JP,1715043885
82,la passe,45.5549,-0.8967,13.32,87,86,5.74,FR,1715044184
83,birjand,32.8663,59.2211,19.74,42,78,3.84,IR,1715044184
84,tabuk,17.4189,121.4443,30.97,53,10,2.41,PH,1715044184
85,hawaiian paradise park,19.5933,-154.9731,23.91,86,100,2.06,US,1715044184
86,tsiombe,-25.3,45.4833,19.41,75,0,2.91,MG,1715044041
87,lobujya,27.95,86.8167,-8.24,84,99,1.8,NP,1715044185
88,selfoss,63.9331,-20.9971,4.47,76,100,8.66,IS,1715043932
89,ionia,42.9873,-85.0711,17.11,45,0,3.09,US,1715044185
90,keflavik,64.0049,-22.5624,4.95,87,75,10.8,IS,1715043965
91,lafayette,30.2335,-92.0668,27.01,83,20,2.57,US,1715043995
92,mitu,1.1983,-70.1733,24.43,88,100,0.85,CO,1715044185
93,fisterra,42.9049,-9.2629,10.97,86,4,4.49,ES,1715044185
94,horta,38.5333,-28.6333,17.79,94,13,7.15,PT,1715044111
95,callao,-12.0667,-77.15,22.62,77,0,4.12,PE,1715044026
96,nishifukuma,33.7667,130.4667,22.38,77,100,7.77,JP,1715044185
97,seryshevo,51.0933,128.3786,17.03,26,11,1.67,RU,1715044185
98,guatire,10.4762,-66.5427,23.96,97,90,0.76,VE,1715044185
99,posoltega,12.5448,-86.9799,28.6,66,93,1.78,NI,1715044185
100,peniche,39.3558,-9.3811,13.38,89,5,7.94,PT,1715044185
101,remire-montjoly,4.9167,-52.2667,27.02,94,100,3.09,GF,1715044185
102,tura,25.5198,90.2201,22.89,84,6,0.97,IN,1715044185
103,udachny,66.4167,112.4,-0.31,98,99,9.57,RU,1715044185
104,quepos,9.4236,-84.1652,27.96,78,19,0.87,CR,1715044009
105,dwarka,22.2394,68.9678,27.29,87,0,4.69,IN,1715044186
106,college,64.8569,-147.8028,2.26,89,100,2.57,US,1715044186
107,posto fiscal rolim de moura,-13.0833,-62.2667,26.69,72,60,0.99,BR,1715044186
108,newman,37.3138,-121.0208,22.38,42,8,1.79,US,1715044094
109,fort-shevchenko,44.5086,50.263,13.12,55,100,5.94,KZ,1715044186
110,metlili chaamba,32.2667,3.6333,25.99,12,100,2.46,DZ,1715044186
111,as sulayyil,20.4607,45.5779,26.14,19,0,4.84,SA,1715044186
112,mahwah,27.05,76.9333,31.62,19,0,2.98,IN,1715044186
113,sitka,57.0531,-135.33,8.94,66,75,8.23,US,1715044186
114,camana,-16.6228,-72.7111,19.62,90,86,3.45,PE,1715044186
115,vilyuchinsk,52.9306,158.4028,6.15,82,93,2.68,RU,1715044186
116,burutu,5.3509,5.5076,27.19,87,100,2.49,NG,1715044186
117,puerto baquerizo moreno,-0.9,-89.6,23.45,88,5,3.34,EC,1715044186
118,klyuchi,52.2667,79.1667,6.69,55,70,3.9,RU,1715044186
119,mejit,10.2753,170.8646,27.39,80,45,9.41,MH,1715044187
120,kodiak,57.79,-152.4072,6.73,81,100,5.14,US,1715044187
121,arraial do cabo,-22.9661,-42.0278,24.43,87,0,9.93,BR,1715044122
122,cockburn town,21.4612,-71.1419,25.39,85,15,9.86,TC,1715044090
123,tukrah,32.5341,20.5791,16.25,59,0,1.39,LY,1715044187
124,la ronge,55.1001,-105.2842,11.12,58,75,5.14,CA,1715044187
125,shimoda,34.6667,138.95,18.95,94,100,6.81,JP,1715044187
126,mattighofen,48.1031,13.1503,12.97,98,100,3.53,AT,1715044187
127,bukittinggi,-0.3091,100.3706,20.61,96,94,0.7,ID,1715044187
128,lamu,-2.2717,40.902,26.15,87,99,4.91,KE,1715044187
129,ushuaia,-54.8,-68.3,-2.18,97,100,1.4,AR,1715044188
130,isafjordur,66.0755,-23.124,1.58,92,95,3.89,IS,1715044188
131,khovd,48.0056,91.6419,17.51,34,99,0.24,MN,1715044188
132,hargeysa,9.56,44.065,21.57,69,100,1.81,SO,1715044188
133,swan hill,-35.3378,143.5544,18.9,44,0,3.54,AU,1715044077
134,niafunke,15.9322,-3.9906,29.6,13,17,1.39,ML,1715044188
135,punta arenas,-53.15,-70.9167,3.06,93,75,3.09,CL,1715043915
136,severo-yeniseyskiy,60.3725,93.0408,-0.24,88,99,4.92,RU,1715043893
137,hammerfest,70.6634,23.6821,-0.75,74,75,5.14,NO,1715044188
138,happy valley-goose bay,53.3168,-60.3315,4.12,79,8,2.45,CA,1715044188
139,martapura,-3.4167,114.85,28.89,76,46,0.46,ID,1715044188
140,quellon,-43.1167,-73.6167,5.66,92,100,2.14,CL,1715044188
141,kota belud,6.351,116.4305,30.51,57,3,1.07,MY,1715044188
142,tyuratam,45.6507,63.3156,16.85,37,84,2.48,KZ,1715044188
143,spanish wells,26.323,-81.7957,27.77,56,75,2.06,US,1715044188
144,ribeira brava,32.65,-17.0667,19.84,79,99,1.88,PT,1715044188
145,cole harbour,44.6724,-63.4751,9.97,93,100,2.24,CA,1715044060
146,qaqortoq,60.7167,-46.0333,-0.93,71,1,1.05,GL,1715044189
147,new norfolk,-42.7826,147.0587,15.51,58,3,0.82,AU,1715044189
148,cutral-co,-38.9469,-69.2089,12.73,10,100,4.02,AR,1715044189
149,ulladulla,-35.35,150.4667,16.52,73,24,3.15,AU,1715044189
150,hithadhoo,-0.6,73.0833,29.28,73,12,3.64,MV,1715044189
151,maxixe,-23.8597,35.3472,20.36,84,11,2.31,MZ,1715044189
152,saint-philippe,-21.3585,55.7679,23.77,79,31,5.85,RE,1715044189
153,cabo san lucas,22.8909,-109.9124,26.4,63,100,2.06,MX,1715044018
154,usinsk,65.9939,57.5281,-5.52,77,100,7.6,RU,1715044189
155,monteagudo,-19.8167,-63.9833,19.32,96,1,0.83,BO,1715044189
156,shagamu,6.8432,3.6478,26.21,89,100,0.51,NG,1715044189
157,choibalsan,48.0667,114.5,18.17,24,5,0.31,MN,1715044189
158,nemuro,43.3236,145.575,7.06,99,100,3.16,JP,1715043894
159,kadur,13.5533,76.0131,24.13,81,4,0.88,IN,1715044189
160,mili,6.0815,171.735,28.24,80,100,9.05,MH,1715044189
161,tazovsky,67.4667,78.7,-12.98,97,100,3.39,RU,1715044190
162,alice springs,-23.7,133.8833,16.75,59,64,3.6,AU,1715044190
163,nar'yan-mar,67.6713,53.087,-13.27,92,100,3.58,RU,1715044190
164,bac lieu,9.285,105.7244,30.96,61,5,4.59,VN,1715044190
165,faya-largeau,17.9257,19.1043,32.2,16,0,9.84,TD,1715044190
166,ta`u,-14.2336,-169.5144,28.81,81,100,5.0,AS,1715044190
167,bethanie,-26.4833,17.15,19.28,31,0,2.2,NA,1715044190
168,riversdale,18.1659,-76.9642,27.92,82,6,1.82,JM,1715043907
169,hamilton,39.1834,-84.5333,20.77,93,100,3.09,US,1715043966
170,sinazongwe,-17.2614,27.4618,22.75,55,0,1.16,ZM,1715044190
171,kayenta,36.7278,-110.2546,13.73,17,0,11.38,US,1715044190
172,zhangye,38.9342,100.4517,21.21,15,50,2.29,CN,1715044190
173,yemva,62.59,50.8594,-2.85,76,22,2.16,RU,1715044190
174,hirara,24.8,125.2833,25.4,79,96,7.42,JP,1715044190
175,sawang daen din,17.4753,103.4575,28.94,100,0,1.88,TH,1715044159
176,praia da vitoria,38.7333,-27.0667,19.31,94,100,10.61,PT,1715044190
177,queenstown,-31.8976,26.8753,13.86,43,0,2.36,ZA,1715044191
178,artvin,41.1667,41.8333,5.76,99,100,0.75,TR,1715044191
179,coquimbo,-29.9533,-71.3436,12.85,82,0,1.54,CL,1715044000
180,igarka,67.4667,86.5833,-6.66,89,98,6.26,RU,1715044191
181,valparaiso,-33.0393,-71.6273,7.8,76,0,2.57,CL,1715044042
182,north platte,41.1239,-100.7654,16.66,33,0,12.52,US,1715044191
183,anadyr,64.75,177.4833,-2.72,80,0,3.0,RU,1715044191
184,ghat,24.9647,10.1728,26.19,35,99,3.08,LY,1715044191
185,jiazi,22.8779,116.067,24.93,88,100,5.83,CN,1715044191
186,adrar,20.5022,-10.0711,29.61,8,9,2.96,MR,1715044191
187,ambodifotatra,-16.9833,49.85,25.33,76,12,8.72,MG,1715044041
188,morondava,-20.2833,44.2833,22.57,55,0,4.46,MG,1715044041
189,berdigestyakh,62.0989,126.6992,7.06,90,100,5.48,RU,1715044191
190,fort wellington,6.4,-57.6,26.71,86,99,4.17,GY,1715044191
191,napoleon,41.3923,-84.1252,16.23,56,47,4.13,US,1715044191
192,hasaki,35.7333,140.8333,19.22,78,100,11.74,JP,1715044191
193,kuusamo,65.9667,29.1833,-1.98,86,100,2.57,FI,1715044192
194,kayyerkan,69.3786,87.7439,-14.28,100,100,1.42,RU,1715044192
195,baikonur,45.6167,63.3167,16.97,37,80,2.41,KZ,1715044192
196,laojunmiao,39.8333,97.7333,17.08,18,0,2.92,CN,1715044192
197,esikhaleni,-28.871,31.8996,18.99,68,0,3.99,ZA,1715044192
198,constitucion,-35.3333,-72.4167,12.41,85,96,8.56,CL,1715044192
199,konarka,19.9,86.1167,26.76,81,26,5.89,IN,1715043980
200,codrington,-38.2667,141.9667,15.23,66,11,2.87,AU,1715044192
201,afaahiti,-17.75,-149.2833,29.93,86,82,9.28,PF,1715044192
202,oranjemund,-28.55,16.4333,14.05,83,0,1.36,NA,1715044192
203,chonglong,29.7806,104.8522,21.08,83,100,1.41,CN,1715044192
204,swift current,50.2834,-107.8014,9.45,100,100,5.66,CA,1715044192
205,miyaly,48.8844,53.7836,9.57,40,12,1.58,KZ,1715044192
206,kununurra,-15.7667,128.7333,27.99,42,49,3.6,AU,1715044193
207,mount gambier,-37.8333,140.7667,15.4,62,1,2.63,AU,1715044193
208,murun-kuren,49.6342,100.1625,19.12,20,100,1.39,MN,1715044098
209,gamba,-2.65,10.0,25.74,92,50,2.65,GA,1715044193
210,port shepstone,-30.7414,30.455,21.66,43,0,2.78,ZA,1715044095
211,knysna,-34.0363,23.0471,16.67,53,0,0.91,ZA,1715044193
212,minas de marcona,-15.2119,-75.1103,15.37,83,42,5.57,PE,1715044031
213,mersa matruh,31.3525,27.2453,16.57,74,0,3.09,EG,1715044193
214,ballina,-28.8667,153.5667,20.99,79,0,8.86,AU,1715044193
215,sengiley,53.9622,48.7944,7.1,72,100,2.21,RU,1715044193
216,tual,-5.6667,132.75,27.49,82,100,7.12,ID,1715044118
217,san antonio de pale,-1.4014,5.6325,27.99,79,100,7.05,GQ,1715044193
218,petershausen,48.4,11.4667,11.5,95,100,3.03,DE,1715044193
219,aasiaat,68.7098,-52.8699,-12.72,91,54,2.41,GL,1715044193
220,vadso,70.0744,29.7487,-3.51,86,20,4.63,NO,1715044194
221,tralee,52.2704,-9.7026,10.03,87,95,1.97,IE,1715044194
222,narok,-1.0783,35.8601,15.23,96,100,0.76,KE,1715044194
223,pujili,-0.95,-78.6833,13.6,71,40,6.69,EC,1715043965
224,piskent,40.8972,69.3506,18.04,47,47,1.37,UZ,1715044194
225,mugia,43.1041,-9.2179,11.06,88,9,3.56,ES,1715044194
226,colonel hill,22.7667,-74.2167,25.27,79,35,9.51,BS,1715044194
227,nova vicosa,-17.8919,-39.3719,25.07,84,0,3.91,BR,1715044098
228,ilulissat,69.2167,-51.1,-4.99,68,100,0.0,GL,1715044194
229,whistler,50.1164,-122.9695,9.66,61,40,1.54,CA,1715043999
230,sijunjung,-0.6876,100.9537,24.55,97,100,0.16,ID,1715044194
231,karmala,18.4167,75.2,27.96,38,0,4.46,IN,1715044194
232,basco,20.4487,121.9702,28.49,69,5,2.08,PH,1715044194
233,dudinka,69.4058,86.1778,-14.07,97,99,2.24,RU,1715044194
234,kitimat,54.0524,-128.6534,9.39,68,99,3.58,CA,1715044195
235,kantang,7.4054,99.5156,27.85,83,100,1.33,TH,1715044082
236,clinton,42.587,-82.9199,17.18,57,3,3.45,US,1715044184
237,tafuna,-14.3358,-170.72,28.97,82,83,6.42,AS,1715044195
238,crozon,48.2464,-4.4899,12.21,94,100,4.12,FR,1715044195
239,namtsy,62.7161,129.6658,11.95,58,100,7.56,RU,1715044195
240,el calafate,-50.3408,-72.2768,-3.12,69,12,1.16,AR,1715044195
241,isangel,-19.55,169.2667,25.18,72,100,5.73,VU,1715044195
242,montepuez,-13.1256,38.9997,19.47,94,88,2.46,MZ,1715044195
243,guiuan,11.0333,125.7247,27.4,78,83,1.1,PH,1715044195
244,nikolayevsk-on-amure,53.1406,140.73,5.12,53,9,1.79,RU,1715043903
245,hailar,49.2,119.7,16.41,27,8,0.85,CN,1715044195
246,saint augustine beach,29.8505,-81.2654,25.08,83,0,6.17,US,1715044195
247,lubbenau,51.8667,13.9667,8.58,95,96,2.33,DE,1715044195
248,tenenkou,14.4572,-4.9169,33.51,34,99,5.89,ML,1715044195
249,lebu,-37.6167,-73.65,11.19,94,100,8.36,CL,1715044196
250,ancud,-41.8697,-73.8203,6.17,95,100,0.28,CL,1715044196
251,sisimiut,66.9395,-53.6735,-7.31,84,47,3.37,GL,1715044196
252,fort st. john,56.2499,-120.8529,14.34,30,100,4.14,CA,1715044196
253,thinadhoo,0.5333,72.9333,29.07,75,85,4.3,MV,1715044196
254,kralendijk,12.15,-68.2667,28.99,79,20,7.2,BQ,1715043905
255,kupang,-10.1667,123.5833,31.32,74,20,6.69,ID,1715044196
256,suva,-18.1416,178.4415,25.71,89,75,1.54,FJ,1715044196
257,tari,12.4086,4.4914,31.83,47,100,6.33,NG,1715044196
258,cadale,2.7603,46.3222,27.91,79,100,5.31,SO,1715044196
259,zheleznodorozhnyy,55.7503,38.0042,2.1,56,100,3.13,RU,1715043904
260,praya,14.9215,-23.5087,23.3,53,0,6.17,CV,1715043926
261,badr hunayn,23.7829,38.7905,23.94,25,0,1.01,SA,1715043903
262,chonchi,-42.6128,-73.8092,5.07,98,100,0.93,CL,1715044196
263,mount pearl,47.5166,-52.7813,3.41,92,100,9.77,CA,1715043959
264,bredasdorp,-34.5322,20.0403,14.45,64,2,1.47,ZA,1715044196
265,papao,-17.75,-149.55,30.82,84,100,9.85,PF,1715044197
266,petropavlovsk-kamchatsky,53.0452,158.6483,5.33,78,75,4.0,RU,1715044197
267,primero de mayo,-32.2552,-58.4228,20.31,98,100,2.62,AR,1715044197
268,cordoba,-31.4135,-64.1811,17.64,76,0,0.49,AR,1715044159
269,naryn,41.4287,75.9911,9.52,52,0,1.68,KG,1715044197
270,lewiston orchards,46.3804,-116.9754,13.17,68,100,2.06,US,1715044197
271,nago,26.5881,127.9761,27.47,76,61,5.26,JP,1715044197
272,pinarbasi,38.7229,36.3931,2.52,87,94,1.5,TR,1715044197
273,miri,4.4148,114.0089,29.03,76,75,1.58,MY,1715044197
274,magalia,39.8121,-121.5783,16.95,57,79,2.51,US,1715044197
275,byron bay,-28.65,153.6167,20.95,84,50,7.61,AU,1715044197
276,orcopampa,-15.2661,-72.3417,9.77,69,95,2.41,PE,1715044197
277,guerrero negro,27.9769,-114.0611,16.66,67,99,9.7,MX,1715044008
278,andalgala,-27.5819,-66.3165,20.69,24,2,2.98,AR,1715044197
279,urzhar,47.093,81.6294,13.76,75,100,1.83,KZ,1715044197
280,karratha,-20.7377,116.8463,28.24,31,0,2.25,AU,1715044024
281,santa ana,33.7456,-117.8678,25.14,46,20,4.63,US,1715044054
282,vanino,49.0869,140.2543,3.29,84,100,4.27,RU,1715044005
283,tshabong,-26.05,22.45,18.51,29,0,4.05,BW,1715044198
284,bodaybo,57.8506,114.1933,8.97,93,100,2.1,RU,1715044003
285,georgetown,5.4112,100.3354,27.96,83,20,1.54,MY,1715043954
286,la tuque,47.4334,-72.7824,8.48,69,6,2.73,CA,1715044198
287,moranbah,-22.0016,148.0466,25.32,54,10,9.78,AU,1715044198
288,enewetak,11.3474,162.3373,27.82,77,98,8.54,MH,1715044198
289,floro,61.5996,5.0328,13.04,87,100,0.0,NO,1715044198
290,undurkhaan,47.3194,110.6556,18.49,20,12,4.77,MN,1715044198
291,sao joao da barra,-21.6403,-41.0511,24.87,86,0,3.61,BR,1715044198
292,bang saphan,11.2126,99.5117,29.31,74,98,0.8,TH,1715044198
293,saltillo,25.4167,-101.0,31.68,16,75,7.6,MX,1715044198
294,youghal,51.95,-7.8506,11.56,100,97,3.02,IE,1715044198
295,klaksvik,62.2266,-6.589,3.51,72,10,5.2,FO,1715044198
296,polyarnyy,69.1989,33.4478,-3.96,67,100,5.33,RU,1715044198
297,nizhniy kuranakh,58.8353,125.4869,12.54,75,100,2.6,RU,1715044198
298,santa cruz de yojoa,14.9833,-87.9,26.81,77,2,2.08,HN,1715044199
299,buy,58.4786,41.53,-2.92,70,0,1.57,RU,1715044056
300,newport,51.5877,-2.9984,12.05,88,9,3.7,GB,1715043994
301,rio grande,-32.035,-52.0986,20.06,96,100,4.1,BR,1715043959
302,issoudun,47.0,1.8333,10.83,93,100,4.12,FR,1715044199
303,westport,41.1415,-73.3579,20.08,85,0,1.54,US,1715043972
304,castilho,-20.8722,-51.4875,24.1,53,4,3.35,BR,1715044199
305,conception bay south,47.4999,-52.9981,3.74,92,100,5.26,CA,1715043976
306,cam ranh,11.9214,109.1591,28.98,79,40,1.54,VN,1715044199
307,umm al quwain city,25.5647,55.5552,30.01,45,0,2.27,AE,1715044199
308,brookings,44.3114,-96.7984,19.1,82,100,11.83,US,1715044168
309,hadibu,12.65,54.0333,28.76,74,22,2.53,YE,1715044199
310,omura,32.9214,129.9539,19.91,72,100,4.02,JP,1715044199
311,areal,-22.2306,-43.1056,18.58,89,0,1.29,BR,1715044199
312,mato verde,-15.3972,-42.8664,21.72,79,4,3.11,BR,1715044200
313,waingapu,-9.6567,120.2641,28.72,71,6,5.24,ID,1715044200
314,pisco,-13.7,-76.2167,20.03,83,0,3.6,PE,1715044200
315,beoumi,7.6736,-5.5764,23.93,95,100,0.87,CI,1715044200
316,al ghayzah,16.2079,52.176,29.34,76,0,3.87,YE,1715044200
317,egilsstadir,65.2653,-14.3948,4.62,68,10,4.25,IS,1715044200
318,sidi ifni,29.3797,-10.173,16.8,92,86,1.62,MA,1715044200
319,kerema,-7.9631,145.7785,28.58,75,95,2.34,PG,1715044200
320,bumba,2.1833,22.4667,24.84,69,86,0.71,CD,1715044200
321,wangqing,43.3218,129.7634,11.96,39,100,5.59,CN,1715044200
322,walvis bay,-22.9575,14.5053,14.49,80,0,2.95,NA,1715044200
323,amalapuram,16.5833,82.0167,29.05,86,15,1.85,IN,1715044200
324,cill airne,52.05,-9.5167,10.67,94,98,1.76,IE,1715044200
325,weno,7.4515,151.8468,29.03,79,64,5.77,FM,1715044200
326,tchintabaraden,15.8969,5.7985,33.1,15,84,3.47,NE,1715044201
327,mogocha,53.7333,119.7667,17.23,32,80,4.48,RU,1715044069
328,bandon,51.7469,-8.7425,11.77,93,22,3.37,IE,1715044045
329,takoradi,4.8845,-1.7554,27.71,83,100,1.78,GH,1715044201
330,mbuji-mayi,-6.15,23.6,22.49,66,3,1.34,CD,1715044201
331,kasongo-lunda,-6.4667,16.8167,21.32,69,5,0.68,CD,1715044201
332,kristiansund,63.1115,7.732,9.03,93,100,4.12,NO,1715044201
333,ataq,14.5377,46.8319,22.71,74,9,4.66,YE,1715044201
334,junin de los andes,-39.9504,-71.0694,2.08,92,100,3.45,AR,1715044201
335,zhicheng,30.2956,111.5047,22.83,84,100,1.67,CN,1715044201
336,aripuana,-9.1667,-60.6333,24.43,95,69,0.75,BR,1715044193
337,silale,55.4906,22.1814,3.9,97,100,5.96,LT,1715044201
338,ocean city,39.2776,-74.5746,20.14,90,100,0.45,US,1715043912
339,pagar alam,-4.0167,103.2667,22.14,97,100,0.05,ID,1715044201
340,varzea da palma,-17.5981,-44.7308,21.63,77,5,1.92,BR,1715044202
341,bikenibeu village,1.3673,173.1241,28.9,75,43,5.19,KI,1715044202
342,vuktyl,63.8567,57.3094,-1.05,92,100,4.47,RU,1715044202
343,chiredzi,-21.05,31.6667,15.45,76,0,1.28,ZW,1715044202
344,alaghsas,17.0187,8.0168,30.97,12,75,4.35,NE,1715044202
345,rimouski,48.4488,-68.524,8.1,72,5,4.01,CA,1715044053
346,twon-brass,4.3151,6.2418,28.95,79,100,4.61,NG,1715044202
347,babana,10.4295,3.815,27.41,70,47,3.25,NG,1715044203
348,sant lluis,39.8526,4.2594,15.22,94,0,7.2,ES,1715044203
349,jean-rabel,19.8533,-73.1917,26.18,86,12,4.79,HT,1715044203
350,tvoroyri,61.5556,-6.8111,7.66,72,12,5.33,FO,1715044107
351,blackfoot,43.1905,-112.345,10.96,47,94,12.11,US,1715044203
352,margate,51.3813,1.3862,11.28,97,100,4.26,GB,1715043949
353,fort mcmurray,56.7268,-111.381,15.67,59,100,2.09,CA,1715044203
354,east london,-33.0153,27.9116,23.42,38,0,2.33,ZA,1715044013
355,granada,37.25,-3.25,11.28,72,0,1.22,ES,1715044203
356,dumai,1.6833,101.45,25.52,95,100,1.74,ID,1715044203
357,keelung,25.1283,121.7419,27.94,75,98,3.94,TW,1715044203
358,rio gallegos,-51.6226,-69.2181,2.26,75,100,2.21,AR,1715044039
359,ponta delgada,37.7333,-25.6667,18.44,94,40,5.14,PT,1715044188
360,trinidad,-14.8333,-64.9,25.57,85,73,1.25,BO,1715044203
361,mildura,-34.2,142.15,20.6,54,0,5.32,AU,1715044131
362,punta del este,-34.9667,-54.95,18.06,100,100,2.57,UY,1715043999
363,susuman,62.7833,148.1667,0.55,76,80,1.34,RU,1715044204
364,howrah,22.5892,88.3103,24.0,88,100,5.14,IN,1715044204
365,loango,-4.6719,11.8312,25.81,94,20,1.54,CG,1715044204
366,nuevo imperial,-13.0754,-76.3172,18.69,94,58,1.67,PE,1715044204
367,st. john's,47.5649,-52.7093,3.87,92,100,9.77,CA,1715044204
368,altayskoye,51.9533,85.3325,5.42,65,12,1.53,RU,1715044204
369,ilam,26.9167,87.9167,20.25,69,100,1.71,NP,1715044204
370,lompoc,34.6391,-120.4579,22.1,52,0,7.72,US,1715044078
371,nadym,65.5333,72.5167,-9.46,90,99,2.55,RU,1715044204
372,babayevo,59.3936,35.9371,-3.54,71,91,1.9,RU,1715044204
373,yaren,-0.5472,166.916,29.14,73,9,6.28,NR,1715044204
374,malango,-2.9627,119.9001,24.99,77,100,0.81,ID,1715044204
375,tondano,1.3038,124.9112,25.05,60,98,1.05,ID,1715044204
376,lata,40.1629,-8.3327,11.15,97,0,1.39,PT,1715044204
377,amga,60.8953,131.9608,13.3,47,87,5.32,RU,1715044204
378,berezovyy,51.6667,135.7,11.06,39,6,1.92,RU,1715044205
379,rawson,-43.3002,-65.1023,12.68,43,46,5.64,AR,1715044196
380,argo,37.6333,22.7333,15.54,67,100,2.09,GR,1715044205
381,ryotsu-minato,38.0833,138.4333,15.21,90,100,3.14,JP,1715044205
382,tonning,54.3167,8.95,11.16,94,47,1.83,DE,1715044205
383,kirakira,-10.4544,161.9205,31.49,64,80,4.44,SB,1715044205
384,bellmead,31.594,-97.1089,27.06,77,0,8.23,US,1715044105
385,talpa de allende,20.3833,-104.8167,23.81,44,100,1.04,MX,1715044205
386,geraldton,-28.7667,114.6,15.23,72,0,2.57,AU,1715044206
387,gaiman,-43.2897,-65.4929,14.41,34,99,6.32,AR,1715044206
388,iwon-up,40.3231,128.6553,8.69,93,100,1.58,KP,1715044206
389,wamba,8.9333,8.6,25.42,80,87,1.15,NG,1715044206
390,flying fish cove,-10.4217,105.6791,26.82,83,75,6.17,CX,1715044206
391,lensk,60.7253,114.9278,6.23,83,100,7.07,RU,1715044206
392,chateau-renault,47.5919,0.9114,11.01,99,86,2.48,FR,1715044206
393,kenai,60.5544,-151.2583,7.05,91,100,4.63,US,1715044206
394,falavarjan,32.5553,51.5097,9.56,51,3,1.66,IR,1715044206
395,natal,-5.795,-35.2094,26.36,94,40,1.54,BR,1715043947
396,acarau,-2.8856,-40.12,25.79,82,100,3.6,BR,1715044182
397,dhidhdhoo,6.8833,73.1,29.25,73,100,3.63,MV,1715044067
398,dampit,-8.2116,112.7493,26.54,67,23,2.06,ID,1715044206
399,kulhudhuffushi,6.6221,73.07,29.26,75,100,3.74,MV,1715044207
400,malgrat de mar,41.6466,2.7414,16.73,82,98,1.22,ES,1715044207
401,piti village,13.4626,144.6933,31.49,69,40,5.14,GU,1715044207
402,laguna,38.421,-121.4238,23.04,42,0,4.12,US,1715043997
403,boende,-0.2167,20.8667,24.46,73,100,0.62,CD,1715044207
404,maracaibo,10.6317,-71.6406,27.62,85,75,4.13,VE,1715044207
405,altagracia de orituco,9.8601,-66.3814,26.04,80,100,2.46,VE,1715044207
406,lianhe,47.1333,129.2667,15.52,32,0,0.23,CN,1715044207
407,palmer,42.1584,-72.3287,19.23,78,100,1.2,US,1715044155
408,jinka,5.65,36.65,17.57,89,100,0.82,ET,1715044207
409,lubango,-14.9172,13.4925,14.72,66,51,1.12,AO,1715044038
410,sungai raya,0.7,108.9,29.2,75,43,0.86,ID,1715044207
411,sola,-13.8833,167.55,27.05,74,73,9.42,VU,1715044207
412,chardara,41.2547,67.9692,20.19,62,53,2.6,KZ,1715044208
413,nagqu,31.5,92.0,1.89,56,100,2.85,CN,1715044208
414,carauari,-4.8828,-66.8958,24.17,99,100,1.05,BR,1715044208
415,muriti,-1.9833,32.9167,22.92,77,90,4.0,TZ,1715044208
416,atafu village,-8.5421,-172.5159,30.0,72,10,4.5,TK,1715044208
417,polatli,39.5772,32.1413,7.42,46,0,0.18,TR,1715044208
418,jayapura,-2.5333,140.7,29.66,88,100,0.68,ID,1715044208
419,saint-pierre,-21.3393,55.4781,23.82,73,0,7.72,RE,1715043966
420,viedma,-40.8135,-62.9967,9.71,85,0,3.99,AR,1715044208
421,virginia,37.5481,-77.4467,20.72,94,100,2.06,US,1715044078
422,zhangjiajie,29.1294,110.4783,23.63,75,100,0.77,CN,1715044208
423,turpan,42.9333,89.1667,29.05,23,98,1.21,CN,1715044208
424,altai,46.3722,96.2583,15.5,19,15,4.82,MN,1715044209
425,alo,7.4178,6.7371,26.05,90,100,1.23,NG,1715044209
426,torghay,49.6339,63.4981,10.03,92,58,3.38,KZ,1715044209
427,burang,30.25,81.1667,-1.26,79,66,0.73,CN,1715044209
428,aykhal,66.0,111.5,0.56,97,97,10.21,RU,1715043994
429,nantucket,41.2835,-70.0995,14.49,99,100,4.12,US,1715043918
430,saldanha,-33.0117,17.9442,14.64,91,93,4.78,ZA,1715044006
431,pangody,65.85,74.4859,-11.65,96,80,1.64,RU,1715044209
432,arish,31.1316,33.7984,18.97,66,0,4.65,EG,1715044209
433,inarajan village,13.2736,144.7484,31.54,80,100,5.37,GU,1715044209
434,lagos,6.5833,3.75,27.18,87,100,1.3,NG,1715043994
435,tolanaro,-25.0319,46.9987,22.03,80,0,5.88,MG,1715044209
436,chilliwack,49.1747,-121.9443,12.88,68,95,0.45,CA,1715044209
437,princeville,45.7668,-61.2985,8.75,96,100,2.06,CA,1715044209
438,syktyvkar,61.6764,50.8099,-3.15,68,0,2.0,RU,1715044209
439,santo antonio,-6.3106,-35.4789,23.63,97,88,3.22,BR,1715044210
440,baymak,52.5933,58.3225,3.75,92,7,2.62,RU,1715044116
441,kobayashi,31.9833,130.9833,18.21,73,100,4.42,JP,1715044210
442,kharkhorin,47.1975,102.8238,20.91,17,18,2.27,MN,1715044210
443,sur,22.5667,59.5289,31.48,61,0,4.38,OM,1715044210
444,rakops,-21.0167,24.3333,20.05,32,0,3.62,BW,1715044210
445,porto novo,6.4965,2.6036,27.58,81,29,2.05,BJ,1715044043
446,kingaroy,-26.5333,151.8333,19.43,68,90,6.26,AU,1715044210
447,beau vallon,-20.4189,57.6953,25.13,65,40,6.69,MU,1715044210
448,sirte,31.2089,16.5887,19.0,54,4,4.77,LY,1715044211
449,astrakhan,46.3497,48.0408,6.93,100,0,3.0,RU,1715044211
450,bechar,31.6167,-2.2167,21.33,12,0,1.82,DZ,1715044211
451,prado,-17.3411,-39.2208,24.75,87,2,3.21,BR,1715044211
452,pingzhuang,42.0372,119.2889,15.52,33,100,4.59,CN,1715044211
453,beohari,24.05,81.3833,28.87,40,3,1.97,IN,1715044039
454,cooma,-36.2333,149.1333,13.22,57,0,1.4,AU,1715044211
455,cloverdale,38.8055,-123.0172,20.67,53,100,4.92,US,1715043946
456,lethem,3.3803,-59.7968,24.71,93,100,1.34,GY,1715044211
457,bangkalan,-7.0455,112.7351,26.97,79,6,1.6,ID,1715043930
458,tyukalinsk,55.8732,72.1967,7.29,60,100,6.72,RU,1715044212
459,kapuskasing,49.4169,-82.4331,16.05,39,20,2.57,CA,1715043963
460,nuuk,64.1835,-51.7216,-2.66,74,18,5.14,GL,1715044020
461,caribou,46.8606,-68.012,15.92,66,100,5.14,US,1715044212
462,kourou,5.1552,-52.6478,27.03,94,100,3.0,GF,1715044077
463,gulma,12.6423,4.3555,32.3,45,100,6.44,NG,1715044212
464,olyokminsk,60.3736,120.4264,9.78,89,100,4.76,RU,1715044213
465,namibe,-15.1961,12.1522,22.46,71,10,3.39,AO,1715044213
466,okhotsk,59.3833,143.3,2.95,84,66,2.77,RU,1715044213
467,aleksandrov gay,50.147,48.5704,8.79,76,60,3.67,RU,1715044213
468,chokwe,-24.5333,32.9833,17.26,92,0,2.38,MZ,1715044213
469,tynda,55.1667,124.7167,12.12,60,95,1.9,RU,1715044213
470,brejo santo,-7.4933,-38.9872,24.39,72,100,3.73,BR,1715044213
471,phon charoen,18.0333,103.1667,30.44,74,9,3.26,TH,1715044213
472,el porvenir,13.7617,-87.3458,29.63,74,100,1.82,HN,1715044213
473,antsiranana,-12.2787,49.2917,24.5,77,100,8.15,MG,1715044041
474,nebbi,2.4783,31.0889,20.64,86,100,2.55,UG,1715044161
475,ivdel',60.6911,60.4206,3.44,46,100,3.13,RU,1715044214
476,tagta,41.6504,59.9164,24.71,34,100,5.03,TM,1715044159
477,yuzhno-kurilsk,44.0306,145.8556,5.76,99,100,3.95,RU,1715044005
478,necochea,-38.5473,-58.7368,13.65,65,100,4.56,AR,1715044214
479,fale old settlement,-9.3852,-171.2468,30.12,69,8,4.76,TK,1715044214
480,jawf al maqbabah,13.8378,45.8349,24.12,83,77,0.65,YE,1715044214
481,olonets,60.9847,32.9698,-1.88,83,72,1.68,RU,1715044215
482,mocimboa,-11.3167,40.35,23.32,91,17,3.28,MZ,1715044215
483,maracacume,-2.0428,-45.9592,24.25,97,99,1.13,BR,1715044215
484,hilo,19.7297,-155.09,24.03,88,100,2.06,US,1715043966
485,qorveh,35.1664,47.8045,6.96,84,99,3.21,IR,1715044215
486,black river,18.0264,-77.8487,26.99,83,0,1.53,JM,1715044215
487,medina,24.4686,39.6142,24.24,9,0,0.0,SA,1715044215
488,agadez,19.75,10.25,30.8,14,99,3.64,NE,1715044215
489,boiling springs,35.0465,-81.9818,20.51,87,40,0.0,US,1715044215
490,ulanhot,46.0833,122.0833,18.46,24,30,2.46,CN,1715044215
491,lerwick,60.1545,-1.1494,9.0,95,100,1.88,GB,1715043943
492,santa vitoria,-18.8386,-50.1214,23.45,63,1,2.53,BR,1715044215
493,dryden,49.7833,-92.7503,15.1,56,94,2.39,CA,1715044215
494,labrador city,52.9463,-66.9114,2.88,75,93,3.97,CA,1715044104
495,skikda,36.8762,6.9092,18.39,52,100,2.84,DZ,1715044215
496,kiama,-34.6833,150.8667,17.99,93,87,0.89,AU,1715044215
497,al kharj,24.155,47.3346,28.32,41,0,3.04,SA,1715044145
498,macau,22.2006,113.5461,27.06,89,80,3.6,MO,1715044207
499,liwale,-9.7667,37.9333,19.21,98,29,2.0,TZ,1715044161
500,gounou gaya,9.6294,15.5132,31.54,21,16,2.28,TD,1715044216
501,sao paulo de olivenca,-3.3783,-68.8725,24.29,99,100,0.68,BR,1715044000
502,lospalos,-8.5186,127.0025,25.7,78,99,3.0,TL,1715044216
503,lejanias,3.5251,-74.0216,21.29,97,98,1.46,CO,1715044216
504,portland,45.5234,-122.6762,13.02,69,20,7.2,US,1715044131
505,cannonvale,-20.2833,148.7,23.66,86,100,5.64,AU,1715044216
506,khandyga,62.6667,135.6,8.16,76,37,3.0,RU,1715044216
507,rehoboth,-23.3167,17.0833,17.88,28,5,3.0,NA,1715044217
508,plettenberg bay,-34.0527,23.3716,16.48,61,0,0.48,ZA,1715044044
509,caleta de carquin,-11.0925,-77.6267,19.57,88,84,4.32,PE,1715044217
510,yarmouth,41.7057,-70.2286,15.54,93,75,3.09,US,1715044217
511,mont-laurier,46.5501,-75.4993,16.79,63,5,2.23,CA,1715043964
512,talata mafara,12.5732,6.0597,31.1,44,63,5.29,NG,1715044099
513,chiang klang,19.2938,100.8617,31.55,41,0,1.1,TH,1715044217
514,sweetwater,25.7634,-80.3731,26.67,79,20,6.69,US,1715043835
515,sinabang,2.4803,96.3801,25.63,94,100,1.91,ID,1715044217
516,corumba,-19.0092,-57.6533,25.53,47,10,1.41,BR,1715044050
517,naze,28.3667,129.4833,22.48,70,10,5.98,JP,1715044218
518,miracema do tocantins,-9.5618,-48.3967,27.49,60,100,0.76,BR,1715044218
519,castillos,-34.1667,-53.8333,19.23,99,100,1.61,UY,1715044218
520,prince rupert,54.3161,-130.3201,7.05,93,100,3.6,CA,1715044218
521,inirida,3.8653,-67.9239,23.74,99,100,0.83,CO,1715044218
522,pila,53.1515,16.7378,8.98,86,79,4.02,PL,1715044218
523,shahrud,36.4182,54.9763,16.77,51,99,2.33,IR,1715044218
524,pandan,14.0453,124.1694,29.96,69,9,1.7,PH,1715044219
525,hakha,22.65,93.6167,17.74,75,100,0.46,MM,1715044219
526,axim,4.8699,-2.2405,27.45,84,100,1.62,GH,1715044219
527,dzuunmod,48.2199,97.3744,14.52,25,67,3.02,MN,1715044219
528,lamarque,-39.423,-65.7021,13.04,64,0,4.96,AR,1715044219
529,al qubbah,32.7616,22.2424,12.08,56,0,2.77,LY,1715044219
530,vila velha,-20.3297,-40.2925,22.97,94,40,2.06,BR,1715044127
531,bijie,27.3125,105.2942,14.43,94,100,0.65,CN,1715044219
532,fort bragg,35.139,-79.006,22.32,91,20,3.09,US,1715044019
533,kapa'a,22.0752,-159.319,27.99,83,75,6.69,US,1715044220
534,sandnessjoen,66.0217,12.6316,-0.71,67,23,3.64,NO,1715044220
535,cao bang,22.6667,106.25,22.49,97,99,0.11,VN,1715044220
536,sittwe,20.15,92.9,27.8,60,100,3.62,MM,1715044220
537,hachinohe,40.5,141.5,15.89,93,100,3.21,JP,1715044220
538,antalaha,-14.9003,50.2788,21.77,91,94,2.6,MG,1715044220
539,bahia honda,22.9036,-83.1592,25.79,83,1,4.34,CU,1715043979
540,solhan,38.9634,41.0293,6.07,92,93,2.34,TR,1715044220
541,tazacorte,28.629,-17.9293,22.3,64,0,4.63,ES,1715044220
542,awjilah,29.1081,21.2869,19.92,32,0,2.02,LY,1715044220
543,kiruna,67.8557,20.2251,-3.49,74,100,2.57,SE,1715044221
544,jijel,36.8205,5.7667,19.97,45,40,2.57,DZ,1715043925
545,arrah,25.5667,84.6667,24.94,70,3,7.15,IN,1715044221
546,quelimane,-17.8786,36.8883,20.47,92,1,0.58,MZ,1715044221
547,kanoya,31.3833,130.85,19.54,79,100,5.35,JP,1715043926
548,zhaotong,27.3167,103.7167,14.58,72,100,2.25,CN,1715044221
549,weatherford,32.7593,-97.7972,26.81,81,24,0.89,US,1715043976
550,kita,13.0349,-9.4895,32.37,18,70,1.24,ML,1715044221
551,dorado,18.4588,-66.2677,26.0,98,0,3.81,PR,1715044221
552,shetpe,44.1667,52.1167,12.33,71,100,6.9,KZ,1715044222
553,bratsk,56.1325,101.6142,9.27,59,94,3.22,RU,1715044093
554,gadzhiyevo,69.2551,33.3362,-2.89,62,100,6.8,RU,1715044222
555,minot air force base,48.4209,-101.3391,15.55,88,100,11.83,US,1715044222
556,emerald,-23.5333,148.1667,25.75,48,0,4.43,AU,1715044035
557,rikaze,29.25,88.8833,5.74,69,100,2.54,CN,1715044222
558,palikir - national government center,6.9248,158.1611,30.47,79,100,5.14,FM,1715044222
